{
  "genres": [
    {
      "id": "MAGASIN",
      "sous_genres": ["VIN_SPRIRIT", "EPICERIE_FINE"]
    },
    {
      "id": "RESTAURANT",
      "sous_genres": [
        "TAPAS",
        "CUISINE_ARG",
        "CUISINE_MEX",
        "CUISINE_JAP",
        "CUISINE_VIET",
        "CUISINE_ITA",
        "CUISINE_TRAD",
        "CUISINE_GASTRO",
        "CUISINE_BISTRO",
        "BRUNCH"
      ]
    },
    {
      "id": "CAFE",
      "sous_genres": ["TERRASSE", "BRUNCH", "BON_CAFE"]
    },
    {
      "id": "BAR",
      "sous_genres": [
        "TAPAS",
        "BABYFOOT",
        "BAR_ALLEMAND",
        "GUINGUETTE",
        "TERRASSE",
        "PUB",
        "BRASSERIE",
        "COCKTAIL",
        "BAR_VIN",
        "BRUNCH",
        "CONCERT"
      ]
    },
    {
      "id": "ALLTHENIGHT",
      "sous_genres": ["BOITE", "CONCERT", "ASSO", "CLANDESTINO"]
    }
  ],
  "places": [
    {
      "creator": "Admin",
      "date_creation": "Sat, 26 Jan 2019 18:08:21 GMT",
      "description": "",
      "genre": "BAR",
      "id": "Sat, 26 Jan 2019 18:08:21 GMT--Le Biergarten",
      "latitude": 43.5885,
      "longitude": 1.4464,
      "nom": "Le Biergarten",
      "sous_genre": ["BAR_ALLEMAND", "GUINGUETTE", "TERRASSE"]
    },
    {
      "creator": "Admin",
      "date_creation": "Sat, 26 Jan 2019 18:28:05 GMT",
      "description": "",
      "genre": "BAR",
      "id": "Sat, 26 Jan 2019 18:28:05 GMT--The Black Lion",
      "latitude": 43.5923,
      "longitude": 1.4438,
      "nom": "The Black Lion",
      "sous_genre": ["PUB"]
    },
    {
      "creator": "Admin",
      "date_creation": "Sun, 27 Jan 2019 01:26:58 GMT",
      "description": "",
      "genre": "BAR",
      "id": "Sun, 27 Jan 2019 01:26:58 GMT--The Danu",
      "latitude": 43.6007,
      "longitude": 1.4559,
      "nom": "The Danu",
      "sous_genre": ["PUB"]
    },
    {
      "creator": "Admin",
      "date_creation": "Sun, 27 Jan 2019 01:41:27 GMT",
      "description": "",
      "genre": "BAR",
      "id": "Sun, 27 Jan 2019 01:41:27 GMT--Au Poêle de la Bête",
      "latitude": 43.6028,
      "longitude": 1.4541,
      "nom": "Au Poêle de la Bête",
      "sous_genre": ["BRASSERIE"]
    },
    {
      "creator": "Admin",
      "date_creation": "Sun, 27 Jan 2019 01:42:03 GMT",
      "description": "",
      "genre": "BAR",
      "id": "Sun, 27 Jan 2019 01:42:03 GMT--La Mécanique des Fluides",
      "latitude": 43.6072,
      "longitude": 1.4537,
      "nom": "La Mécanique des Fluides",
      "sous_genre": ["BRASSERIE"]
    },
    {
      "creator": "Admin",
      "date_creation": "Sun, 27 Jan 2019 01:43:01 GMT",
      "description": "",
      "genre": "BAR",
      "id": "Sun, 27 Jan 2019 01:43:01 GMT--Bar L'Autruche - Brasserie Du Bec",
      "latitude": 43.6049,
      "longitude": 1.4547,
      "nom": "Bar L'Autruche - Brasserie Du Bec",
      "sous_genre": ["BRASSERIE"]
    }
  ]
}
